$GPGGA,142637.273,5231.591,N,01325.028,E,1,12,1.0,0.0,M,0.0,M,,*6A
$GPGGA,142638.273,5231.349,N,01325.203,E,1,12,1.0,0.0,M,0.0,M,,*6D
$GPGGA,142639.273,5231.001,N,01324.467,E,1,12,1.0,0.0,M,0.0,M,,*66
$GPGGA,142640.273,5230.381,N,01324.112,E,1,12,1.0,0.0,M,0.0,M,,*65
$GPGGA,142641.273,5231.074,N,01322.654,E,1,12,1.0,0.0,M,0.0,M,,*6F
$GPGGA,142642.273,5232.020,N,01322.623,E,1,12,1.0,0.0,M,0.0,M,,*6E
$GPGGA,142643.273,5232.508,N,01321.089,E,1,12,1.0,0.0,M,0.0,M,,*65
$GPGGA,142644.273,5232.421,N,01320.718,E,1,12,1.0,0.0,M,0.0,M,,*66
$GPGGA,142645.273,5232.264,N,01320.677,E,1,12,1.0,0.0,M,0.0,M,,*68
$GPGGA,142646.273,5232.114,N,01320.605,E,1,12,1.0,0.0,M,0.0,M,,*6A
$GPGGA,142647.273,5231.901,N,01320.543,E,1,12,1.0,0.0,M,0.0,M,,*65
$GPGGA,142648.273,5231.481,N,01320.100,E,1,12,1.0,0.0,M,0.0,M,,*6C
$GPGGA,142649.273,5231.481,N,01320.615,E,1,12,1.0,0.0,M,0.0,M,,*6E
$GPGGA,142650.273,5231.030,N,01321.295,E,1,12,1.0,0.0,M,0.0,M,,*65
$GPGGA,142651.273,5231.130,N,01320.522,E,1,12,1.0,0.0,M,0.0,M,,*6F
$GPGGA,142652.273,5230.829,N,01320.306,E,1,12,1.0,0.0,M,0.0,M,,*6C
$GPGGA,142653.273,5230.553,N,01320.151,E,1,12,1.0,0.0,M,0.0,M,,*6D
$GPGGA,142654.273,5230.691,N,01321.202,E,1,12,1.0,0.0,M,0.0,M,,*63
$GPGGA,142655.273,5230.472,N,01321.243,E,1,12,1.0,0.0,M,0.0,M,,*68
$GPGGA,142656.273,5230.478,N,01321.758,E,1,12,1.0,0.0,M,0.0,M,,*6E
$GPGGA,142657.273,5230.697,N,01322.417,E,1,12,1.0,0.0,M,0.0,M,,*67
$GPGGA,142658.273,5230.622,N,01322.850,E,1,12,1.0,0.0,M,0.0,M,,*69
$GPGGA,142659.273,5230.453,N,01322.850,E,1,12,1.0,0.0,M,0.0,M,,*6C
$GPGGA,142700.273,5229.964,N,01322.829,E,1,12,1.0,0.0,M,0.0,M,,*6E
$GPGGA,142701.273,5229.682,N,01323.756,E,1,12,1.0,0.0,M,0.0,M,,*6E
$GPGGA,142702.273,5229.713,N,01324.498,E,1,12,1.0,0.0,M,0.0,M,,*62
$GPGGA,142703.273,5229.939,N,01325.033,E,1,12,1.0,0.0,M,0.0,M,,*61
$GPGGA,142704.273,5230.165,N,01324.529,E,1,12,1.0,0.0,M,0.0,M,,*60
$GPGGA,142705.273,5230.014,N,01324.076,E,1,12,1.0,0.0,M,0.0,M,,*69
$GPGGA,142706.273,5229.933,N,01324.704,E,1,12,1.0,0.0,M,0.0,M,,*6C
$GPGGA,142707.273,5229.437,N,01324.498,E,1,12,1.0,0.0,M,0.0,M,,*62
$GPGGA,142708.273,5229.575,N,01325.518,E,1,12,1.0,0.0,M,0.0,M,,*62
$GPGGA,142709.273,5229.625,N,01324.879,E,1,12,1.0,0.0,M,0.0,M,,*6E
$GPGGA,142710.273,5230.553,N,01326.084,E,1,12,1.0,0.0,M,0.0,M,,*64
$GPGGA,142711.273,5230.008,N,01326.105,E,1,12,1.0,0.0,M,0.0,M,,*66
$GPGGA,142712.273,5230.371,N,01325.507,E,1,12,1.0,0.0,M,0.0,M,,*6D
$GPGGA,142713.273,5230.879,N,01325.672,E,1,12,1.0,0.0,M,0.0,M,,*6E
$GPGGA,142714.273,5230.591,N,01327.124,E,1,12,1.0,0.0,M,0.0,M,,*64
$GPGGA,142715.273,5230.234,N,01326.517,E,1,12,1.0,0.0,M,0.0,M,,*68
$GPGGA,142716.273,5231.161,N,01326.877,E,1,12,1.0,0.0,M,0.0,M,,*62
$GPGGA,142717.273,5230.892,N,01327.691,E,1,12,1.0,0.0,M,0.0,M,,*60
$GPGGA,142718.273,5231.067,N,01326.393,E,1,12,1.0,0.0,M,0.0,M,,*6A
$GPGGA,142719.273,5231.675,N,01326.743,E,1,12,1.0,0.0,M,0.0,M,,*67
$GPGGA,142720.273,5232.082,N,01327.464,E,1,12,1.0,0.0,M,0.0,M,,*67
$GPGGA,142721.273,5232.728,N,01326.681,E,1,12,1.0,0.0,M,0.0,M,,*69
$GPGGA,142722.273,5231.988,N,01326.445,E,1,12,1.0,0.0,M,0.0,M,,*67
$GPGGA,142723.273,5232.684,N,01325.373,E,1,12,1.0,0.0,M,0.0,M,,*67
$GPGGA,142724.273,5233.072,N,01325.579,E,1,12,1.0,0.0,M,0.0,M,,*62
$GPGGA,142725.273,5233.091,N,01324.313,E,1,12,1.0,0.0,M,0.0,M,,*65
$GPGGA,142726.273,5232.465,N,01324.405,E,1,12,1.0,0.0,M,0.0,M,,*68
$GPGGA,142727.273,5232.746,N,01323.416,E,1,12,1.0,0.0,M,0.0,M,,*6E
$GPGGA,142728.273,5232.659,N,01324.107,E,1,12,1.0,0.0,M,0.0,M,,*6C
$GPGGA,142729.273,5233.310,N,01323.664,E,1,12,1.0,0.0,M,0.0,M,,*61
$GPGGA,142730.273,5232.978,N,01322.572,E,1,12,1.0,0.0,M,0.0,M,,*69
$GPGGA,142731.273,5232.264,N,01323.633,E,1,12,1.0,0.0,M,0.0,M,,*69
$GPGGA,142732.273,5232.652,N,01322.222,E,1,12,1.0,0.0,M,0.0,M,,*6E
$GPGGA,142733.273,5232.189,N,01323.077,E,1,12,1.0,0.0,M,0.0,M,,*6D
$GPGGA,142734.273,5233.279,N,01321.109,E,1,12,1.0,0.0,M,0.0,M,,*6D
$GPGGA,142735.273,5233.279,N,01321.109,E,1,12,1.0,0.0,M,0.0,M,,*6C
$GPGGA,142736.273,5233.222,N,01322.407,E,1,12,1.0,0.0,M,0.0,M,,*69
$GPGGA,142737.273,5231.901,N,01324.251,E,1,12,1.0,0.0,M,0.0,M,,*63
$GPGGA,142738.273,5232.032,N,01325.033,E,1,12,1.0,0.0,M,0.0,M,,*61
$GPGGA,142739.273,5232.358,N,01325.342,E,1,12,1.0,0.0,M,0.0,M,,*6A
$GPGGA,142740.273,5232.458,N,01324.364,E,1,12,1.0,0.0,M,0.0,M,,*66
$GPGGA,142741.273,5233.930,N,01325.219,E,1,12,1.0,0.0,M,0.0,M,,*6F
$GPGGA,142742.273,5233.798,N,01322.428,E,1,12,1.0,0.0,M,0.0,M,,*63
$GPGGA,142743.273,5233.154,N,01319.935,E,1,12,1.0,0.0,M,0.0,M,,*6D
$GPGGA,142744.273,5232.364,N,01319.853,E,1,12,1.0,0.0,M,0.0,M,,*6B
$GPGGA,142745.273,5230.842,N,01319.029,E,1,12,1.0,0.0,M,0.0,M,,*62
$GPGGA,142746.273,5230.071,N,01318.277,E,1,12,1.0,0.0,M,0.0,M,,*61
$GPGGA,142747.273,5229.813,N,01320.533,E,1,12,1.0,0.0,M,0.0,M,,*68
$GPGGA,142748.273,5229.349,N,01315.321,E,1,12,1.0,0.0,M,0.0,M,,*60
$GPGGA,142749.273,5231.074,N,01313.467,E,1,12,1.0,0.0,M,0.0,M,,*66
$GPGGA,142750.273,5231.575,N,01311.479,E,1,12,1.0,0.0,M,0.0,M,,*67
$GPGGA,142751.273,5230.798,N,01311.438,E,1,12,1.0,0.0,M,0.0,M,,*63
$GPGGA,142752.273,5230.973,N,01308.956,E,1,12,1.0,0.0,M,0.0,M,,*66
$GPGGA,142753.273,5230.973,N,01307.473,E,1,12,1.0,0.0,M,0.0,M,,*62
$GPGGA,142754.273,5230.973,N,01305.660,E,1,12,1.0,0.0,M,0.0,M,,*67
$GPGGA,142755.273,5230.973,N,01304.259,E,1,12,1.0,0.0,M,0.0,M,,*69
$GPGGA,142756.273,5230.973,N,01303.023,E,1,12,1.0,0.0,M,0.0,M,,*62
$GPGGA,142757.273,5230.823,N,01301.622,E,1,12,1.0,0.0,M,0.0,M,,*62
$GPGGA,142758.273,5230.020,N,01301.375,E,1,12,1.0,0.0,M,0.0,M,,*61
$GPGGA,142759.273,5229.870,N,01301.293,E,1,12,1.0,0.0,M,0.0,M,,*6C
$GPGGA,142800.273,5229.820,N,01259.645,E,1,12,1.0,0.0,M,0.0,M,,*69
$GPGGA,142801.273,5230.171,N,01258.326,E,1,12,1.0,0.0,M,0.0,M,,*6C
$GPGGA,142802.273,5229.569,N,01257.585,E,1,12,1.0,0.0,M,0.0,M,,*6A
$GPGGA,142803.273,5229.770,N,01255.607,E,1,12,1.0,0.0,M,0.0,M,,*6A
$GPGGA,142804.273,5230.321,N,01255.443,E,1,12,1.0,0.0,M,0.0,M,,*67
$GPGGA,142805.273,5230.422,N,01253.465,E,1,12,1.0,0.0,M,0.0,M,,*60
$GPGGA,142806.273,5229.017,N,01252.806,E,1,12,1.0,0.0,M,0.0,M,,*61
$GPGGA,142807.273,5229.017,N,01251.817,E,1,12,1.0,0.0,M,0.0,M,,*63
$GPGGA,142808.273,5229.368,N,01250.581,E,1,12,1.0,0.0,M,0.0,M,,*64
$GPGGA,142809.273,5230.472,N,01250.251,E,1,12,1.0,0.0,M,0.0,M,,*6B
$GPGGA,142810.273,5230.672,N,01248.933,E,1,12,1.0,0.0,M,0.0,M,,*67
$GPGGA,142811.273,5230.522,N,01247.944,E,1,12,1.0,0.0,M,0.0,M,,*6F
$GPGGA,142812.273,5229.318,N,01245.390,E,1,12,1.0,0.0,M,0.0,M,,*6A
$GPGGA,142813.273,5230.321,N,01245.060,E,1,12,1.0,0.0,M,0.0,M,,*65
$GPGGA,142814.273,5232.176,N,01245.225,E,1,12,1.0,0.0,M,0.0,M,,*63
$GPGGA,142815.273,5232.227,N,01243.907,E,1,12,1.0,0.0,M,0.0,M,,*68
$GPGGA,142816.273,5231.575,N,01239.705,E,1,12,1.0,0.0,M,0.0,M,,*69
$GPGGA,142817.273,5231.374,N,01238.057,E,1,12,1.0,0.0,M,0.0,M,,*6E
$GPGGA,142818.273,5231.174,N,01235.750,E,1,12,1.0,0.0,M,0.0,M,,*6E
$GPGGA,142819.273,5231.174,N,01234.431,E,1,12,1.0,0.0,M,0.0,M,,*6A
$GPGGA,142820.273,5231.174,N,01232.454,E,1,12,1.0,0.0,M,0.0,M,,*65
$GPGGA,142821.273,5230.973,N,01228.169,E,1,12,1.0,0.0,M,0.0,M,,*6A
$GPGGA,142822.273,5230.973,N,01222.896,E,1,12,1.0,0.0,M,0.0,M,,*6A
$GPGGA,142823.273,5230.973,N,01220.918,E,1,12,1.0,0.0,M,0.0,M,,*6E
$GPGGA,142824.273,5230.973,N,01219.270,E,1,12,1.0,0.0,M,0.0,M,,*66
$GPGGA,142825.273,5230.973,N,01219.270,E,1,12,1.0,0.0,M,0.0,M,,*67
$GPGGA,142826.273,5230.973,N,01216.304,E,1,12,1.0,0.0,M,0.0,M,,*69
$GPGGA,142827.273,5230.773,N,01214.326,E,1,12,1.0,0.0,M,0.0,M,,*64
$GPGGA,142828.273,5230.773,N,01211.360,E,1,12,1.0,0.0,M,0.0,M,,*6C
$GPGGA,142829.273,5230.572,N,01207.405,E,1,12,1.0,0.0,M,0.0,M,,*6D
$GPGGA,142830.273,5230.572,N,01204.768,E,1,12,1.0,0.0,M,0.0,M,,*6E
$GPGGA,142831.273,5230.572,N,01200.154,E,1,12,1.0,0.0,M,0.0,M,,*62
$GPGGA,142832.273,5230.572,N,01157.188,E,1,12,1.0,0.0,M,0.0,M,,*61
$GPGGA,142833.273,5230.371,N,01151.584,E,1,12,1.0,0.0,M,0.0,M,,*6B
$GPGGA,142834.273,5228.565,N,01145.322,E,1,12,1.0,0.0,M,0.0,M,,*69
$GPGGA,142835.273,5230.572,N,01132.139,E,1,12,1.0,0.0,M,0.0,M,,*6F
$GPGGA,142836.273,5218.509,N,01128.184,E,1,12,1.0,0.0,M,0.0,M,,*67
$GPGGA,142837.273,5211.244,N,01128.184,E,1,12,1.0,0.0,M,0.0,M,,*61
$GPGGA,142838.273,5208.009,N,01122.910,E,1,12,1.0,0.0,M,0.0,M,,*62
$GPGGA,142839.273,5203.149,N,01126.865,E,1,12,1.0,0.0,M,0.0,M,,*6A
$GPGGA,142840.273,5202.339,N,01145.322,E,1,12,1.0,0.0,M,0.0,M,,*6D
$GPGGA,142841.273,5153.403,N,01153.232,E,1,12,1.0,0.0,M,0.0,M,,*62
$GPGGA,142842.273,5148.517,N,01121.592,E,1,12,1.0,0.0,M,0.0,M,,*67
$GPGGA,142843.273,5132.165,N,01138.730,E,1,12,1.0,0.0,M,0.0,M,,*68
$GPGGA,142844.273,5132.165,N,01153.232,E,1,12,1.0,0.0,M,0.0,M,,*65
$GPGGA,142845.273,5120.660,N,01133.457,E,1,12,1.0,0.0,M,0.0,M,,*66
$GPGGA,142846.273,5109.107,N,01133.457,E,1,12,1.0,0.0,M,0.0,M,,*68
$GPGGA,142847.273,5056.675,N,01117.637,E,1,12,1.0,0.0,M,0.0,M,,*62
$GPGGA,142848.273,5059.166,N,01056.543,E,1,12,1.0,0.0,M,0.0,M,,*63
$GPGGA,142849.273,5055.844,N,01043.359,E,1,12,1.0,0.0,M,0.0,M,,*6E
$GPGGA,142850.273,5052.519,N,01014.355,E,1,12,1.0,0.0,M,0.0,M,,*6A
$GPGGA,142851.273,5050.854,N,00913.711,E,1,12,1.0,0.0,M,0.0,M,,*66
$GPGGA,142852.273,5033.319,N,00820.977,E,1,12,1.0,0.0,M,0.0,M,,*6D
$GPGGA,142853.273,5018.203,N,00716.377,E,1,12,1.0,0.0,M,0.0,M,,*6F
$GPGGA,142854.273,5005.544,N,00628.916,E,1,12,1.0,0.0,M,0.0,M,,*61
$GPGGA,142855.273,5003.852,N,00537.500,E,1,12,1.0,0.0,M,0.0,M,,*6A
$GPGGA,142856.273,4943.469,N,00515.088,E,1,12,1.0,0.0,M,0.0,M,,*64
$GPGGA,142857.273,4923.801,N,00411.807,E,1,12,1.0,0.0,M,0.0,M,,*6B
$GPGGA,142858.273,4923.801,N,00328.301,E,1,12,1.0,0.0,M,0.0,M,,*64
$GPGGA,142859.273,4910.902,N,00305.889,E,1,12,1.0,0.0,M,0.0,M,,*63
$GPGGA,142900.273,4901.408,N,00236.885,E,1,12,1.0,0.0,M,0.0,M,,*64
$GPGGA,142901.273,4851.015,N,00214.473,E,1,12,1.0,0.0,M,0.0,M,,*6C
$GPGGA,142902.273,4851.612,N,00225.020,E,1,12,1.0,0.0,M,0.0,M,,*6E
$GPGGA,142903.273,4853.617,N,00238.121,E,1,12,1.0,0.0,M,0.0,M,,*64
$GPGGA,142904.273,4859.354,N,00244.713,E,1,12,1.0,0.0,M,0.0,M,,*67
$GPGGA,142905.273,4903.568,N,00258.308,E,1,12,1.0,0.0,M,0.0,M,,*62
$GPGGA,142906.273,4901.354,N,00313.881,E,1,12,1.0,0.0,M,0.0,M,,*6E
$GPGGA,142907.273,4852.858,N,00250.563,E,1,12,1.0,0.0,M,0.0,M,,*68
$GPGGA,142908.273,4840.587,N,00311.821,E,1,12,1.0,0.0,M,0.0,M,,*64
$GPGGA,142909.273,4817.430,N,00248.091,E,1,12,1.0,0.0,M,0.0,M,,*64
$GPGGA,142910.273,4818.307,N,00403.237,E,1,12,1.0,0.0,M,0.0,M,,*67
$GPGGA,142911.273,4806.006,N,00403.896,E,1,12,1.0,0.0,M,0.0,M,,*6A
$GPGGA,142912.273,4745.689,N,00301.934,E,1,12,1.0,0.0,M,0.0,M,,*6C
$GPGGA,142913.273,4750.117,N,00219.746,E,1,12,1.0,0.0,M,0.0,M,,*6A
$GPGGA,142914.273,4753.655,N,00150.083,E,1,12,1.0,0.0,M,0.0,M,,*6F
$GPGGA,142915.273,4713.174,N,00142.832,E,1,12,1.0,0.0,M,0.0,M,,*6F
$GPGGA,142916.273,4631.718,N,00031.641,E,1,12,1.0,0.0,M,0.0,M,,*6E
$GPGGA,142917.273,4448.547,N,00002.637,W,1,12,1.0,0.0,M,0.0,M,,*78
$GPGGA,142918.273,4412.823,N,00042.188,E,1,12,1.0,0.0,M,0.0,M,,*62
$GPGGA,142919.273,4340.549,N,00029.004,E,1,12,1.0,0.0,M,0.0,M,,*6A
$GPGGA,142920.273,4256.420,N,00127.012,E,1,12,1.0,0.0,M,0.0,M,,*60
$GPGGA,142921.273,4229.298,N,00113.169,E,1,12,1.0,0.0,M,0.0,M,,*66
