$GPGGA,142637.273,5231.591,N,01325.028,E,1,12,1.0,0.0,M,0.0,M,,*6A
$GPGSA,A,3,01,02,03,04,05,06,07,08,09,10,11,12,1.0,1.0,1.0*30
$GPRMC,142637.273,A,5231.591,N,01325.028,E,950.1,144.1,040321,000.0,W*77
$GPGGA,142638.273,5231.349,N,01325.203,E,1,12,1.0,0.0,M,0.0,M,,*6D
$GPGSA,A,3,01,02,03,04,05,06,07,08,09,10,11,12,1.0,1.0,1.0*30
$GPRMC,142638.273,A,5231.349,N,01325.203,E,2043.5,244.6,040321,000.0,W*49
$GPGGA,142639.273,5231.001,N,01324.467,E,1,12,1.0,0.0,M,0.0,M,,*66
$GPGSA,A,3,01,02,03,04,05,06,07,08,09,10,11,12,1.0,1.0,1.0*30
$GPRMC,142639.273,A,5231.001,N,01324.467,E,2367.4,209.7,040321,000.0,W*4E
$GPGGA,142640.273,5230.381,N,01324.112,E,1,12,1.0,0.0,M,0.0,M,,*65
$GPGSA,A,3,01,02,03,04,05,06,07,08,09,10,11,12,1.0,1.0,1.0*30
$GPRMC,142640.273,A,5230.381,N,01324.112,E,4054.1,295.5,040321,000.0,W*4A
$GPGGA,142641.273,5231.074,N,01322.654,E,1,12,1.0,0.0,M,0.0,M,,*6F
$GPGSA,A,3,01,02,03,04,05,06,07,08,09,10,11,12,1.0,1.0,1.0*30
$GPRMC,142641.273,A,5231.074,N,01322.654,E,3409.4,358.1,040321,000.0,W*4A
$GPGGA,142642.273,5232.020,N,01322.623,E,1,12,1.0,0.0,M,0.0,M,,*6E
$GPGSA,A,3,01,02,03,04,05,06,07,08,09,10,11,12,1.0,1.0,1.0*30
$GPRMC,142642.273,A,5232.020,N,01322.623,E,3795.5,287.7,040321,000.0,W*49
$GPGGA,142643.273,5232.508,N,01321.089,E,1,12,1.0,0.0,M,0.0,M,,*65
$GPGSA,A,3,01,02,03,04,05,06,07,08,09,10,11,12,1.0,1.0,1.0*30
$GPRMC,142643.273,A,5232.508,N,01321.089,E,871.7,256.6,040321,000.0,W*7B
$GPGGA,142644.273,5232.421,N,01320.718,E,1,12,1.0,0.0,M,0.0,M,,*66
$GPGSA,A,3,01,02,03,04,05,06,07,08,09,10,11,12,1.0,1.0,1.0*30
$GPRMC,142644.273,A,5232.421,N,01320.718,E,571.4,194.7,040321,000.0,W*7A
$GPGGA,142645.273,5232.264,N,01320.677,E,1,12,1.0,0.0,M,0.0,M,,*68
$GPGSA,A,3,01,02,03,04,05,06,07,08,09,10,11,12,1.0,1.0,1.0*30
$GPRMC,142645.273,A,5232.264,N,01320.677,E,564.2,205.5,040321,000.0,W*7F
$GPGGA,142646.273,5232.114,N,01320.605,E,1,12,1.0,0.0,M,0.0,M,,*6A
$GPGSA,A,3,01,02,03,04,05,06,07,08,09,10,11,12,1.0,1.0,1.0*30
$GPRMC,142646.273,A,5232.114,N,01320.605,E,779.2,196.1,040321,000.0,W*7E
$GPGGA,142647.273,5231.901,N,01320.543,E,1,12,1.0,0.0,M,0.0,M,,*65
$GPGSA,A,3,01,02,03,04,05,06,07,08,09,10,11,12,1.0,1.0,1.0*30
$GPRMC,142647.273,A,5231.901,N,01320.543,E,1797.1,226.4,040321,000.0,W*4E
$GPGGA,142648.273,5231.481,N,01320.100,E,1,12,1.0,0.0,M,0.0,M,,*6C
$GPGSA,A,3,01,02,03,04,05,06,07,08,09,10,11,12,1.0,1.0,1.0*30
$GPRMC,142648.273,A,5231.481,N,01320.100,E,1128.7,090.0,040321,000.0,W*48
$GPGGA,142649.273,5231.481,N,01320.615,E,1,12,1.0,0.0,M,0.0,M,,*6E
$GPGSA,A,3,01,02,03,04,05,06,07,08,09,10,11,12,1.0,1.0,1.0*30
$GPRMC,142649.273,A,5231.481,N,01320.615,E,2205.1,123.7,040321,000.0,W*4D
$GPGGA,142650.273,5231.030,N,01321.295,E,1,12,1.0,0.0,M,0.0,M,,*65
$GPGSA,A,3,01,02,03,04,05,06,07,08,09,10,11,12,1.0,1.0,1.0*30
$GPRMC,142650.273,A,5231.030,N,01321.295,E,1731.5,277.4,040321,000.0,W*42
$GPGGA,142651.273,5231.130,N,01320.522,E,1,12,1.0,0.0,M,0.0,M,,*6F
$GPGSA,A,3,01,02,03,04,05,06,07,08,09,10,11,12,1.0,1.0,1.0*30
$GPRMC,142651.273,A,5231.130,N,01320.522,E,1183.0,215.6,040321,000.0,W*44
$GPGGA,142652.273,5230.829,N,01320.306,E,1,12,1.0,0.0,M,0.0,M,,*6C
$GPGSA,A,3,01,02,03,04,05,06,07,08,09,10,11,12,1.0,1.0,1.0*30
$GPRMC,142652.273,A,5230.829,N,01320.306,E,1049.7,209.2,040321,000.0,W*4E
$GPGGA,142653.273,5230.553,N,01320.151,E,1,12,1.0,0.0,M,0.0,M,,*6D
$GPGSA,A,3,01,02,03,04,05,06,07,08,09,10,11,12,1.0,1.0,1.0*30
$GPRMC,142653.273,A,5230.553,N,01320.151,E,2356.3,082.5,040321,000.0,W*43
$GPGGA,142654.273,5230.691,N,01321.202,E,1,12,1.0,0.0,M,0.0,M,,*63
$GPGSA,A,3,01,02,03,04,05,06,07,08,09,10,11,12,1.0,1.0,1.0*30
$GPRMC,142654.273,A,5230.691,N,01321.202,E,795.5,169.4,040321,000.0,W*77
$GPGGA,142655.273,5230.472,N,01321.243,E,1,12,1.0,0.0,M,0.0,M,,*68
$GPGSA,A,3,01,02,03,04,05,06,07,08,09,10,11,12,1.0,1.0,1.0*30
$GPRMC,142655.273,A,5230.472,N,01321.243,E,1129.4,089.3,040321,000.0,W*45
$GPGGA,142656.273,5230.478,N,01321.758,E,1,12,1.0,0.0,M,0.0,M,,*6E
$GPGSA,A,3,01,02,03,04,05,06,07,08,09,10,11,12,1.0,1.0,1.0*30
$GPRMC,142656.273,A,5230.478,N,01321.758,E,1647.3,071.5,040321,000.0,W*4A
$GPGGA,142657.273,5230.697,N,01322.417,E,1,12,1.0,0.0,M,0.0,M,,*67
$GPGSA,A,3,01,02,03,04,05,06,07,08,09,10,11,12,1.0,1.0,1.0*30
$GPRMC,142657.273,A,5230.697,N,01322.417,E,986.4,099.9,040321,000.0,W*7D
$GPGGA,142658.273,5230.622,N,01322.850,E,1,12,1.0,0.0,M,0.0,M,,*69
$GPGSA,A,3,01,02,03,04,05,06,07,08,09,10,11,12,1.0,1.0,1.0*30
$GPRMC,142658.273,A,5230.622,N,01322.850,E,609.7,180.0,040321,000.0,W*78
$GPGGA,142659.273,5230.453,N,01322.850,E,1,12,1.0,0.0,M,0.0,M,,*6C
$GPGSA,A,3,01,02,03,04,05,06,07,08,09,10,11,12,1.0,1.0,1.0*30
$GPRMC,142659.273,A,5230.453,N,01322.850,E,1762.3,182.4,040321,000.0,W*42
$GPGGA,142700.273,5229.964,N,01322.829,E,1,12,1.0,0.0,M,0.0,M,,*6E
$GPGSA,A,3,01,02,03,04,05,06,07,08,09,10,11,12,1.0,1.0,1.0*30
$GPRMC,142700.273,A,5229.964,N,01322.829,E,2273.0,107.0,040321,000.0,W*4C
$GPGGA,142701.273,5229.682,N,01323.756,E,1,12,1.0,0.0,M,0.0,M,,*6E
$GPGSA,A,3,01,02,03,04,05,06,07,08,09,10,11,12,1.0,1.0,1.0*30
$GPRMC,142701.273,A,5229.682,N,01323.756,E,1630.4,087.6,040321,000.0,W*47
$GPGGA,142702.273,5229.713,N,01324.498,E,1,12,1.0,0.0,M,0.0,M,,*62
$GPGSA,A,3,01,02,03,04,05,06,07,08,09,10,11,12,1.0,1.0,1.0*30
$GPRMC,142702.273,A,5229.713,N,01324.498,E,1428.6,067.1,040321,000.0,W*4B
$GPGGA,142703.273,5229.939,N,01325.033,E,1,12,1.0,0.0,M,0.0,M,,*61
$GPGSA,A,3,01,02,03,04,05,06,07,08,09,10,11,12,1.0,1.0,1.0*30
$GPRMC,142703.273,A,5229.939,N,01325.033,E,1373.4,294.2,040321,000.0,W*4E
$GPGGA,142704.273,5230.165,N,01324.529,E,1,12,1.0,0.0,M,0.0,M,,*60
$GPGSA,A,3,01,02,03,04,05,06,07,08,09,10,11,12,1.0,1.0,1.0*30
$GPRMC,142704.273,A,5230.165,N,01324.529,E,1132.0,251.6,040321,000.0,W*41
$GPGGA,142705.273,5230.014,N,01324.076,E,1,12,1.0,0.0,M,0.0,M,,*69
$GPGSA,A,3,01,02,03,04,05,06,07,08,09,10,11,12,1.0,1.0,1.0*30
$GPRMC,142705.273,A,5230.014,N,01324.076,E,1408.8,097.4,040321,000.0,W*46
$GPGGA,142706.273,5229.933,N,01324.704,E,1,12,1.0,0.0,M,0.0,M,,*6C
$GPGSA,A,3,01,02,03,04,05,06,07,08,09,10,11,12,1.0,1.0,1.0*30
$GPRMC,142706.273,A,5229.933,N,01324.704,E,1840.9,202.5,040321,000.0,W*4D
$GPGGA,142707.273,5229.437,N,01324.498,E,1,12,1.0,0.0,M,0.0,M,,*62
$GPGSA,A,3,01,02,03,04,05,06,07,08,09,10,11,12,1.0,1.0,1.0*30
$GPRMC,142707.273,A,5229.437,N,01324.498,E,2291.1,082.3,040321,000.0,W*42
$GPGGA,142708.273,5229.575,N,01325.518,E,1,12,1.0,0.0,M,0.0,M,,*62
$GPGSA,A,3,01,02,03,04,05,06,07,08,09,10,11,12,1.0,1.0,1.0*30
$GPRMC,142708.273,A,5229.575,N,01325.518,E,1412.2,274.5,040321,000.0,W*42
$GPGGA,142709.273,5229.625,N,01324.879,E,1,12,1.0,0.0,M,0.0,M,,*6E
$GPGSA,A,3,01,02,03,04,05,06,07,08,09,10,11,12,1.0,1.0,1.0*30
$GPRMC,142709.273,A,5229.625,N,01324.879,E,4261.2,052.3,040321,000.0,W*49
$GPGGA,142710.273,5230.553,N,01326.084,E,1,12,1.0,0.0,M,0.0,M,,*64
$GPGSA,A,3,01,02,03,04,05,06,07,08,09,10,11,12,1.0,1.0,1.0*30
$GPRMC,142710.273,A,5230.553,N,01326.084,E,1965.4,177.8,040321,000.0,W*42
$GPGGA,142711.273,5230.008,N,01326.105,E,1,12,1.0,0.0,M,0.0,M,,*66
$GPGSA,A,3,01,02,03,04,05,06,07,08,09,10,11,12,1.0,1.0,1.0*30
$GPRMC,142711.273,A,5230.008,N,01326.105,E,1852.6,301.4,040321,000.0,W*48
$GPGGA,142712.273,5230.371,N,01325.507,E,1,12,1.0,0.0,M,0.0,M,,*6D
$GPGSA,A,3,01,02,03,04,05,06,07,08,09,10,11,12,1.0,1.0,1.0*30
$GPRMC,142712.273,A,5230.371,N,01325.507,E,1864.5,017.9,040321,000.0,W*4C
$GPGGA,142713.273,5230.879,N,01325.672,E,1,12,1.0,0.0,M,0.0,M,,*6E
$GPGSA,A,3,01,02,03,04,05,06,07,08,09,10,11,12,1.0,1.0,1.0*30
$GPRMC,142713.273,A,5230.879,N,01325.672,E,3349.1,101.3,040321,000.0,W*41
$GPGGA,142714.273,5230.591,N,01327.124,E,1,12,1.0,0.0,M,0.0,M,,*64
$GPGSA,A,3,01,02,03,04,05,06,07,08,09,10,11,12,1.0,1.0,1.0*30
$GPRMC,142714.273,A,5230.591,N,01327.124,E,1852.7,239.4,040321,000.0,W*41
$GPGGA,142715.273,5230.234,N,01326.517,E,1,12,1.0,0.0,M,0.0,M,,*68
$GPGSA,A,3,01,02,03,04,05,06,07,08,09,10,11,12,1.0,1.0,1.0*30
$GPRMC,142715.273,A,5230.234,N,01326.517,E,3434.2,021.2,040321,000.0,W*4B
$GPGGA,142716.273,5231.161,N,01326.877,E,1,12,1.0,0.0,M,0.0,M,,*62
$GPGSA,A,3,01,02,03,04,05,06,07,08,09,10,11,12,1.0,1.0,1.0*30
$GPRMC,142716.273,A,5231.161,N,01326.877,E,2030.8,108.4,040321,000.0,W*46
$GPGGA,142717.273,5230.892,N,01327.691,E,1,12,1.0,0.0,M,0.0,M,,*60
$GPGSA,A,3,01,02,03,04,05,06,07,08,09,10,11,12,1.0,1.0,1.0*30
$GPRMC,142717.273,A,5230.892,N,01327.691,E,2914.4,277.7,040321,000.0,W*4F
$GPGGA,142718.273,5231.067,N,01326.393,E,1,12,1.0,0.0,M,0.0,M,,*6A
$GPGSA,A,3,01,02,03,04,05,06,07,08,09,10,11,12,1.0,1.0,1.0*30
$GPRMC,142718.273,A,5231.067,N,01326.393,E,2320.5,029.8,040321,000.0,W*4F
$GPGGA,142719.273,5231.675,N,01326.743,E,1,12,1.0,0.0,M,0.0,M,,*67
$GPGSA,A,3,01,02,03,04,05,06,07,08,09,10,11,12,1.0,1.0,1.0*30
$GPRMC,142719.273,A,5231.675,N,01326.743,E,2156.1,060.4,040321,000.0,W*44
$GPGGA,142720.273,5232.082,N,01327.464,E,1,12,1.0,0.0,M,0.0,M,,*67
$GPGSA,A,3,01,02,03,04,05,06,07,08,09,10,11,12,1.0,1.0,1.0*30
$GPRMC,142720.273,A,5232.082,N,01327.464,E,2888.6,309.6,040321,000.0,W*47
$GPGGA,142721.273,5232.728,N,01326.681,E,1,12,1.0,0.0,M,0.0,M,,*69
$GPGSA,A,3,01,02,03,04,05,06,07,08,09,10,11,12,1.0,1.0,1.0*30
$GPRMC,142721.273,A,5232.728,N,01326.681,E,2713.0,197.7,040321,000.0,W*46
$GPGGA,142722.273,5231.988,N,01326.445,E,1,12,1.0,0.0,M,0.0,M,,*67
$GPGSA,A,3,01,02,03,04,05,06,07,08,09,10,11,12,1.0,1.0,1.0*30
$GPRMC,142722.273,A,5231.988,N,01326.445,E,3432.7,303.1,040321,000.0,W*47
$GPGGA,142723.273,5232.684,N,01325.373,E,1,12,1.0,0.0,M,0.0,M,,*67
$GPGSA,A,3,01,02,03,04,05,06,07,08,09,10,11,12,1.0,1.0,1.0*30
$GPRMC,142723.273,A,5232.684,N,01325.373,E,1469.9,027.8,040321,000.0,W*49
$GPGGA,142724.273,5233.072,N,01325.579,E,1,12,1.0,0.0,M,0.0,M,,*62
$GPGSA,A,3,01,02,03,04,05,06,07,08,09,10,11,12,1.0,1.0,1.0*30
$GPRMC,142724.273,A,5233.072,N,01325.579,E,2775.8,270.9,040321,000.0,W*41
$GPGGA,142725.273,5233.091,N,01324.313,E,1,12,1.0,0.0,M,0.0,M,,*65
$GPGSA,A,3,01,02,03,04,05,06,07,08,09,10,11,12,1.0,1.0,1.0*30
$GPRMC,142725.273,A,5233.091,N,01324.313,E,2265.5,171.6,040321,000.0,W*42
$GPGGA,142726.273,5232.465,N,01324.405,E,1,12,1.0,0.0,M,0.0,M,,*68
$GPGSA,A,3,01,02,03,04,05,06,07,08,09,10,11,12,1.0,1.0,1.0*30
$GPRMC,142726.273,A,5232.465,N,01324.405,E,2392.4,286.0,040321,000.0,W*4A
$GPGGA,142727.273,5232.746,N,01323.416,E,1,12,1.0,0.0,M,0.0,M,,*6E
$GPGSA,A,3,01,02,03,04,05,06,07,08,09,10,11,12,1.0,1.0,1.0*30
$GPRMC,142727.273,A,5232.746,N,01323.416,E,1544.5,097.3,040321,000.0,W*42
$GPGGA,142728.273,5232.659,N,01324.107,E,1,12,1.0,0.0,M,0.0,M,,*6C
$GPGSA,A,3,01,02,03,04,05,06,07,08,09,10,11,12,1.0,1.0,1.0*30
$GPRMC,142728.273,A,5232.659,N,01324.107,E,2539.1,325.9,040321,000.0,W*4D
$GPGGA,142729.273,5233.310,N,01323.664,E,1,12,1.0,0.0,M,0.0,M,,*61
$GPGSA,A,3,01,02,03,04,05,06,07,08,09,10,11,12,1.0,1.0,1.0*30
$GPRMC,142729.273,A,5233.310,N,01323.664,E,2673.7,253.0,040321,000.0,W*42
$GPGGA,142730.273,5232.978,N,01322.572,E,1,12,1.0,0.0,M,0.0,M,,*69
$GPGSA,A,3,01,02,03,04,05,06,07,08,09,10,11,12,1.0,1.0,1.0*30
$GPRMC,142730.273,A,5232.978,N,01322.572,E,3466.9,124.1,040321,000.0,W*41
$GPGGA,142731.273,5232.264,N,01323.633,E,1,12,1.0,0.0,M,0.0,M,,*69
$GPGSA,A,3,01,02,03,04,05,06,07,08,09,10,11,12,1.0,1.0,1.0*30
$GPRMC,142731.273,A,5232.264,N,01323.633,E,3393.4,285.5,040321,000.0,W*4D
$GPGGA,142732.273,5232.652,N,01322.222,E,1,12,1.0,0.0,M,0.0,M,,*6E
$GPGSA,A,3,01,02,03,04,05,06,07,08,09,10,11,12,1.0,1.0,1.0*30
$GPRMC,142732.273,A,5232.652,N,01322.222,E,2509.4,118.6,040321,000.0,W*4A
$GPGGA,142733.273,5232.189,N,01323.077,E,1,12,1.0,0.0,M,0.0,M,,*6D
$GPGSA,A,3,01,02,03,04,05,06,07,08,09,10,11,12,1.0,1.0,1.0*30
$GPRMC,142733.273,A,5232.189,N,01323.077,E,5829.9,299.1,040321,000.0,W*41
$GPGGA,142734.273,5233.279,N,01321.109,E,1,12,1.0,0.0,M,0.0,M,,*6D
$GPGSA,A,3,01,02,03,04,05,06,07,08,09,10,11,12,1.0,1.0,1.0*30
$GPRMC,142734.273,A,5233.279,N,01321.109,E,5829.9,000.0,040321,000.0,W*42
$GPGGA,142735.273,5233.279,N,01321.109,E,1,12,1.0,0.0,M,0.0,M,,*6C
$GPGSA,A,3,01,02,03,04,05,06,07,08,09,10,11,12,1.0,1.0,1.0*30
$GPRMC,142735.273,A,5233.279,N,01321.109,E,2849.7,092.5,040321,000.0,W*42
$GPGGA,142736.273,5233.222,N,01322.407,E,1,12,1.0,0.0,M,0.0,M,,*69
$GPGSA,A,3,01,02,03,04,05,06,07,08,09,10,11,12,1.0,1.0,1.0*30
$GPRMC,142736.273,A,5233.222,N,01322.407,E,6243.8,125.8,040321,000.0,W*4C
$GPGGA,142737.273,5231.901,N,01324.251,E,1,12,1.0,0.0,M,0.0,M,,*63
$GPGSA,A,3,01,02,03,04,05,06,07,08,09,10,11,12,1.0,1.0,1.0*30
$GPRMC,142737.273,A,5231.901,N,01324.251,E,1779.6,080.4,040321,000.0,W*41
$GPGGA,142738.273,5232.032,N,01325.033,E,1,12,1.0,0.0,M,0.0,M,,*61
$GPGSA,A,3,01,02,03,04,05,06,07,08,09,10,11,12,1.0,1.0,1.0*30
$GPRMC,142738.273,A,5232.032,N,01325.033,E,1354.9,043.4,040321,000.0,W*48
$GPGGA,142739.273,5232.358,N,01325.342,E,1,12,1.0,0.0,M,0.0,M,,*6A
$GPGSA,A,3,01,02,03,04,05,06,07,08,09,10,11,12,1.0,1.0,1.0*30
$GPRMC,142739.273,A,5232.358,N,01325.342,E,2174.0,275.9,040321,000.0,W*43
$GPGGA,142740.273,5232.458,N,01324.364,E,1,12,1.0,0.0,M,0.0,M,,*66
$GPGSA,A,3,01,02,03,04,05,06,07,08,09,10,11,12,1.0,1.0,1.0*30
$GPRMC,142740.273,A,5232.458,N,01324.364,E,5622.6,030.0,040321,000.0,W*40
$GPGGA,142741.273,5233.930,N,01325.219,E,1,12,1.0,0.0,M,0.0,M,,*6F
$GPGSA,A,3,01,02,03,04,05,06,07,08,09,10,11,12,1.0,1.0,1.0*30
$GPRMC,142741.273,A,5233.930,N,01325.219,E,6130.5,267.3,040321,000.0,W*4E
$GPGGA,142742.273,5233.798,N,01322.428,E,1,12,1.0,0.0,M,0.0,M,,*63
$GPGSA,A,3,01,02,03,04,05,06,07,08,09,10,11,12,1.0,1.0,1.0*30
$GPRMC,142742.273,A,5233.798,N,01322.428,E,5932.8,255.4,040321,000.0,W*40
$GPGGA,142743.273,5233.154,N,01319.935,E,1,12,1.0,0.0,M,0.0,M,,*6D
$GPGSA,A,3,01,02,03,04,05,06,07,08,09,10,11,12,1.0,1.0,1.0*30
$GPRMC,142743.273,A,5233.154,N,01319.935,E,2848.8,185.9,040321,000.0,W*46
$GPGGA,142744.273,5232.364,N,01319.853,E,1,12,1.0,0.0,M,0.0,M,,*6B
$GPGSA,A,3,01,02,03,04,05,06,07,08,09,10,11,12,1.0,1.0,1.0*30
$GPRMC,142744.273,A,5232.364,N,01319.853,E,5775.0,208.3,040321,000.0,W*42
$GPGGA,142745.273,5230.842,N,01319.029,E,1,12,1.0,0.0,M,0.0,M,,*62
$GPGSA,A,3,01,02,03,04,05,06,07,08,09,10,11,12,1.0,1.0,1.0*30
$GPRMC,142745.273,A,5230.842,N,01319.029,E,3230.1,224.2,040321,000.0,W*47
$GPGGA,142746.273,5230.071,N,01318.277,E,1,12,1.0,0.0,M,0.0,M,,*61
$GPGSA,A,3,01,02,03,04,05,06,07,08,09,10,11,12,1.0,1.0,1.0*30
$GPRMC,142746.273,A,5230.071,N,01318.277,E,5032.7,096.5,040321,000.0,W*48
$GPGGA,142747.273,5229.813,N,01320.533,E,1,12,1.0,0.0,M,0.0,M,,*68
$GPGSA,A,3,01,02,03,04,05,06,07,08,09,10,11,12,1.0,1.0,1.0*30
$GPRMC,142747.273,A,5229.813,N,01320.533,E,11552.6,264.9,040321,000.0,W*75
$GPGGA,142748.273,5229.349,N,01315.321,E,1,12,1.0,0.0,M,0.0,M,,*60
$GPGSA,A,3,01,02,03,04,05,06,07,08,09,10,11,12,1.0,1.0,1.0*30
$GPRMC,142748.273,A,5229.349,N,01315.321,E,7423.2,313.0,040321,000.0,W*41
$GPGGA,142749.273,5231.074,N,01313.467,E,1,12,1.0,0.0,M,0.0,M,,*66
$GPGSA,A,3,01,02,03,04,05,06,07,08,09,10,11,12,1.0,1.0,1.0*30
$GPRMC,142749.273,A,5231.074,N,01313.467,E,4716.7,284.2,040321,000.0,W*49
$GPGGA,142750.273,5231.575,N,01311.479,E,1,12,1.0,0.0,M,0.0,M,,*67
$GPGSA,A,3,01,02,03,04,05,06,07,08,09,10,11,12,1.0,1.0,1.0*30
$GPRMC,142750.273,A,5231.575,N,01311.479,E,2801.0,183.0,040321,000.0,W*46
$GPGGA,142751.273,5230.798,N,01311.438,E,1,12,1.0,0.0,M,0.0,M,,*63
$GPGSA,A,3,01,02,03,04,05,06,07,08,09,10,11,12,1.0,1.0,1.0*30
$GPRMC,142751.273,A,5230.798,N,01311.438,E,5478.3,274.1,040321,000.0,W*4E
$GPGGA,142752.273,5230.973,N,01308.956,E,1,12,1.0,0.0,M,0.0,M,,*66
$GPGSA,A,3,01,02,03,04,05,06,07,08,09,10,11,12,1.0,1.0,1.0*30
$GPRMC,142752.273,A,5230.973,N,01308.956,E,3251.4,270.0,040321,000.0,W*42
$GPGGA,142753.273,5230.973,N,01307.473,E,1,12,1.0,0.0,M,0.0,M,,*62
$GPGSA,A,3,01,02,03,04,05,06,07,08,09,10,11,12,1.0,1.0,1.0*30
$GPRMC,142753.273,A,5230.973,N,01307.473,E,3973.9,270.0,040321,000.0,W*40
$GPGGA,142754.273,5230.973,N,01305.660,E,1,12,1.0,0.0,M,0.0,M,,*67
$GPGSA,A,3,01,02,03,04,05,06,07,08,09,10,11,12,1.0,1.0,1.0*30
$GPRMC,142754.273,A,5230.973,N,01305.660,E,3070.8,270.0,040321,000.0,W*4E
$GPGGA,142755.273,5230.973,N,01304.259,E,1,12,1.0,0.0,M,0.0,M,,*69
$GPGSA,A,3,01,02,03,04,05,06,07,08,09,10,11,12,1.0,1.0,1.0*30
$GPRMC,142755.273,A,5230.973,N,01304.259,E,2709.5,270.0,040321,000.0,W*45
$GPGGA,142756.273,5230.973,N,01303.023,E,1,12,1.0,0.0,M,0.0,M,,*62
$GPGSA,A,3,01,02,03,04,05,06,07,08,09,10,11,12,1.0,1.0,1.0*30
$GPRMC,142756.273,A,5230.973,N,01303.023,E,3118.3,263.8,040321,000.0,W*45
$GPGGA,142757.273,5230.823,N,01301.622,E,1,12,1.0,0.0,M,0.0,M,,*62
$GPGSA,A,3,01,02,03,04,05,06,07,08,09,10,11,12,1.0,1.0,1.0*30
$GPRMC,142757.273,A,5230.823,N,01301.622,E,2941.1,197.1,040321,000.0,W*43
$GPGGA,142758.273,5230.020,N,01301.375,E,1,12,1.0,0.0,M,0.0,M,,*61
$GPGSA,A,3,01,02,03,04,05,06,07,08,09,10,11,12,1.0,1.0,1.0*30
$GPRMC,142758.273,A,5230.020,N,01301.375,E,571.4,208.6,040321,000.0,W*7A
$GPGGA,142759.273,5229.870,N,01301.293,E,1,12,1.0,0.0,M,0.0,M,,*6C
$GPGSA,A,3,01,02,03,04,05,06,07,08,09,10,11,12,1.0,1.0,1.0*30
$GPRMC,142759.273,A,5229.870,N,01301.293,E,3618.7,268.2,040321,000.0,W*49
$GPGGA,142800.273,5229.820,N,01259.645,E,1,12,1.0,0.0,M,0.0,M,,*69
$GPGSA,A,3,01,02,03,04,05,06,07,08,09,10,11,12,1.0,1.0,1.0*30
$GPRMC,142800.273,A,5229.820,N,01259.645,E,3155.8,285.0,040321,000.0,W*4C
$GPGGA,142801.273,5230.171,N,01258.326,E,1,12,1.0,0.0,M,0.0,M,,*6C
$GPGSA,A,3,01,02,03,04,05,06,07,08,09,10,11,12,1.0,1.0,1.0*30
$GPRMC,142801.273,A,5230.171,N,01258.326,E,2710.6,230.8,040321,000.0,W*47
$GPGGA,142802.273,5229.569,N,01257.585,E,1,12,1.0,0.0,M,0.0,M,,*6A
$GPGSA,A,3,01,02,03,04,05,06,07,08,09,10,11,12,1.0,1.0,1.0*30
$GPRMC,142802.273,A,5229.569,N,01257.585,E,4397.2,275.8,040321,000.0,W*49
$GPGGA,142803.273,5229.770,N,01255.607,E,1,12,1.0,0.0,M,0.0,M,,*6A
$GPGSA,A,3,01,02,03,04,05,06,07,08,09,10,11,12,1.0,1.0,1.0*30
$GPRMC,142803.273,A,5229.770,N,01255.607,E,2020.2,343.4,040321,000.0,W*48
$GPGGA,142804.273,5230.321,N,01255.443,E,1,12,1.0,0.0,M,0.0,M,,*67
$GPGSA,A,3,01,02,03,04,05,06,07,08,09,10,11,12,1.0,1.0,1.0*30
$GPRMC,142804.273,A,5230.321,N,01255.443,E,4351.2,272.9,040321,000.0,W*48
$GPGGA,142805.273,5230.422,N,01253.465,E,1,12,1.0,0.0,M,0.0,M,,*60
$GPGSA,A,3,01,02,03,04,05,06,07,08,09,10,11,12,1.0,1.0,1.0*30
$GPRMC,142805.273,A,5230.422,N,01253.465,E,5262.6,205.0,040321,000.0,W*42
$GPGGA,142806.273,5229.017,N,01252.806,E,1,12,1.0,0.0,M,0.0,M,,*61
$GPGSA,A,3,01,02,03,04,05,06,07,08,09,10,11,12,1.0,1.0,1.0*30
$GPRMC,142806.273,A,5229.017,N,01252.806,E,2169.2,270.0,040321,000.0,W*4A
$GPGGA,142807.273,5229.017,N,01251.817,E,1,12,1.0,0.0,M,0.0,M,,*63
$GPGSA,A,3,01,02,03,04,05,06,07,08,09,10,11,12,1.0,1.0,1.0*30
$GPRMC,142807.273,A,5229.017,N,01251.817,E,2992.0,285.9,040321,000.0,W*45
$GPGGA,142808.273,5229.368,N,01250.581,E,1,12,1.0,0.0,M,0.0,M,,*64
$GPGSA,A,3,01,02,03,04,05,06,07,08,09,10,11,12,1.0,1.0,1.0*30
$GPRMC,142808.273,A,5229.368,N,01250.581,E,4040.7,343.4,040321,000.0,W*43
$GPGGA,142809.273,5230.472,N,01250.251,E,1,12,1.0,0.0,M,0.0,M,,*6B
$GPGSA,A,3,01,02,03,04,05,06,07,08,09,10,11,12,1.0,1.0,1.0*30
$GPRMC,142809.273,A,5230.472,N,01250.251,E,2979.5,278.7,040321,000.0,W*41
$GPGGA,142810.273,5230.672,N,01248.933,E,1,12,1.0,0.0,M,0.0,M,,*67
$GPGSA,A,3,01,02,03,04,05,06,07,08,09,10,11,12,1.0,1.0,1.0*30
$GPRMC,142810.273,A,5230.672,N,01248.933,E,2234.6,261.3,040321,000.0,W*40
$GPGGA,142811.273,5230.522,N,01247.944,E,1,12,1.0,0.0,M,0.0,M,,*6F
$GPGSA,A,3,01,02,03,04,05,06,07,08,09,10,11,12,1.0,1.0,1.0*30
$GPRMC,142811.273,A,5230.522,N,01247.944,E,7084.5,244.7,040321,000.0,W*44
$GPGGA,142812.273,5229.318,N,01245.390,E,1,12,1.0,0.0,M,0.0,M,,*6A
$GPGSA,A,3,01,02,03,04,05,06,07,08,09,10,11,12,1.0,1.0,1.0*30
$GPRMC,142812.273,A,5229.318,N,01245.390,E,3685.8,341.9,040321,000.0,W*45
$GPGGA,142813.273,5230.321,N,01245.060,E,1,12,1.0,0.0,M,0.0,M,,*65
$GPGSA,A,3,01,02,03,04,05,06,07,08,09,10,11,12,1.0,1.0,1.0*30
$GPRMC,142813.273,A,5230.321,N,01245.060,E,6692.5,005.1,040321,000.0,W*4F
$GPGGA,142814.273,5232.176,N,01245.225,E,1,12,1.0,0.0,M,0.0,M,,*63
$GPGSA,A,3,01,02,03,04,05,06,07,08,09,10,11,12,1.0,1.0,1.0*30
$GPRMC,142814.273,A,5232.176,N,01245.225,E,2894.4,272.2,040321,000.0,W*45
$GPGGA,142815.273,5232.227,N,01243.907,E,1,12,1.0,0.0,M,0.0,M,,*68
$GPGSA,A,3,01,02,03,04,05,06,07,08,09,10,11,12,1.0,1.0,1.0*30
$GPRMC,142815.273,A,5232.227,N,01243.907,E,9503.5,261.1,040321,000.0,W*46
$GPGGA,142816.273,5231.575,N,01239.705,E,1,12,1.0,0.0,M,0.0,M,,*69
$GPGSA,A,3,01,02,03,04,05,06,07,08,09,10,11,12,1.0,1.0,1.0*30
$GPRMC,142816.273,A,5231.575,N,01239.705,E,3683.5,263.0,040321,000.0,W*45
$GPGGA,142817.273,5231.374,N,01238.057,E,1,12,1.0,0.0,M,0.0,M,,*6E
$GPGSA,A,3,01,02,03,04,05,06,07,08,09,10,11,12,1.0,1.0,1.0*30
$GPRMC,142817.273,A,5231.374,N,01238.057,E,5108.5,265.0,040321,000.0,W*46
$GPGGA,142818.273,5231.174,N,01235.750,E,1,12,1.0,0.0,M,0.0,M,,*6E
$GPGSA,A,3,01,02,03,04,05,06,07,08,09,10,11,12,1.0,1.0,1.0*30
$GPRMC,142818.273,A,5231.174,N,01235.750,E,2889.9,270.0,040321,000.0,W*49
$GPGGA,142819.273,5231.174,N,01234.431,E,1,12,1.0,0.0,M,0.0,M,,*6A
$GPGSA,A,3,01,02,03,04,05,06,07,08,09,10,11,12,1.0,1.0,1.0*30
$GPRMC,142819.273,A,5231.174,N,01234.431,E,4334.8,270.0,040321,000.0,W*47
$GPGGA,142820.273,5231.174,N,01232.454,E,1,12,1.0,0.0,M,0.0,M,,*65
$GPGSA,A,3,01,02,03,04,05,06,07,08,09,10,11,12,1.0,1.0,1.0*30
$GPRMC,142820.273,A,5231.174,N,01232.454,E,9420.3,267.3,040321,000.0,W*49
$GPGGA,142821.273,5230.973,N,01228.169,E,1,12,1.0,0.0,M,0.0,M,,*6A
$GPGSA,A,3,01,02,03,04,05,06,07,08,09,10,11,12,1.0,1.0,1.0*30
$GPRMC,142821.273,A,5230.973,N,01228.169,E,11560.5,270.0,040321,000.0,W*79
$GPGGA,142822.273,5230.973,N,01222.896,E,1,12,1.0,0.0,M,0.0,M,,*6A
$GPGSA,A,3,01,02,03,04,05,06,07,08,09,10,11,12,1.0,1.0,1.0*30
$GPRMC,142822.273,A,5230.973,N,01222.896,E,4335.2,270.0,040321,000.0,W*4C
$GPGGA,142823.273,5230.973,N,01220.918,E,1,12,1.0,0.0,M,0.0,M,,*6E
$GPGSA,A,3,01,02,03,04,05,06,07,08,09,10,11,12,1.0,1.0,1.0*30
$GPRMC,142823.273,A,5230.973,N,01220.918,E,3612.6,270.0,040321,000.0,W*4B
$GPGGA,142824.273,5230.973,N,01219.270,E,1,12,1.0,0.0,M,0.0,M,,*66
$GPGSA,A,3,01,02,03,04,05,06,07,08,09,10,11,12,1.0,1.0,1.0*30
$GPRMC,142824.273,A,5230.973,N,01219.270,E,3612.6,000.0,040321,000.0,W*46
$GPGGA,142825.273,5230.973,N,01219.270,E,1,12,1.0,0.0,M,0.0,M,,*67
$GPGSA,A,3,01,02,03,04,05,06,07,08,09,10,11,12,1.0,1.0,1.0*30
$GPRMC,142825.273,A,5230.973,N,01219.270,E,6502.8,270.0,040321,000.0,W*4B
$GPGGA,142826.273,5230.973,N,01216.304,E,1,12,1.0,0.0,M,0.0,M,,*69
$GPGSA,A,3,01,02,03,04,05,06,07,08,09,10,11,12,1.0,1.0,1.0*30
$GPRMC,142826.273,A,5230.973,N,01216.304,E,4395.1,264.2,040321,000.0,W*41
$GPGGA,142827.273,5230.773,N,01214.326,E,1,12,1.0,0.0,M,0.0,M,,*64
$GPGSA,A,3,01,02,03,04,05,06,07,08,09,10,11,12,1.0,1.0,1.0*30
$GPRMC,142827.273,A,5230.773,N,01214.326,E,6503.3,270.0,040321,000.0,W*42
$GPGGA,142828.273,5230.773,N,01211.360,E,1,12,1.0,0.0,M,0.0,M,,*6C
$GPGSA,A,3,01,02,03,04,05,06,07,08,09,10,11,12,1.0,1.0,1.0*30
$GPRMC,142828.273,A,5230.773,N,01211.360,E,8701.4,267.1,040321,000.0,W*44
$GPGGA,142829.273,5230.572,N,01207.405,E,1,12,1.0,0.0,M,0.0,M,,*6D
$GPGSA,A,3,01,02,03,04,05,06,07,08,09,10,11,12,1.0,1.0,1.0*30
$GPRMC,142829.273,A,5230.572,N,01207.405,E,5781.1,270.0,040321,000.0,W*42
$GPGGA,142830.273,5230.572,N,01204.768,E,1,12,1.0,0.0,M,0.0,M,,*6E
$GPGSA,A,3,01,02,03,04,05,06,07,08,09,10,11,12,1.0,1.0,1.0*30
$GPRMC,142830.273,A,5230.572,N,01204.768,E,10117.0,270.0,040321,000.0,W*7D
$GPGGA,142831.273,5230.572,N,01200.154,E,1,12,1.0,0.0,M,0.0,M,,*62
$GPGSA,A,3,01,02,03,04,05,06,07,08,09,10,11,12,1.0,1.0,1.0*30
$GPRMC,142831.273,A,5230.572,N,01200.154,E,6503.8,270.0,040321,000.0,W*4F
$GPGGA,142832.273,5230.572,N,01157.188,E,1,12,1.0,0.0,M,0.0,M,,*61
$GPGSA,A,3,01,02,03,04,05,06,07,08,09,10,11,12,1.0,1.0,1.0*30
$GPRMC,142832.273,A,5230.572,N,01157.188,E,12306.6,267.9,040321,000.0,W*7B
$GPGGA,142833.273,5230.371,N,01151.584,E,1,12,1.0,0.0,M,0.0,M,,*6B
$GPGSA,A,3,01,02,03,04,05,06,07,08,09,10,11,12,1.0,1.0,1.0*30
$GPRMC,142833.273,A,5230.371,N,01151.584,E,15199.0,253.8,040321,000.0,W*72
$GPGGA,142834.273,5228.565,N,01145.322,E,1,12,1.0,0.0,M,0.0,M,,*69
$GPGSA,A,3,01,02,03,04,05,06,07,08,09,10,11,12,1.0,1.0,1.0*30
$GPRMC,142834.273,A,5228.565,N,01145.322,E,29806.5,278.7,040321,000.0,W*73
$GPGGA,142835.273,5230.572,N,01132.139,E,1,12,1.0,0.0,M,0.0,M,,*6F
$GPGSA,A,3,01,02,03,04,05,06,07,08,09,10,11,12,1.0,1.0,1.0*30
$GPRMC,142835.273,A,5230.572,N,01132.139,E,44318.0,198.1,040321,000.0,W*74
$GPGGA,142836.273,5218.509,N,01128.184,E,1,12,1.0,0.0,M,0.0,M,,*67
$GPGSA,A,3,01,02,03,04,05,06,07,08,09,10,11,12,1.0,1.0,1.0*30
$GPRMC,142836.273,A,5218.509,N,01128.184,E,26169.6,180.0,040321,000.0,W*72
$GPGGA,142837.273,5211.244,N,01128.184,E,1,12,1.0,0.0,M,0.0,M,,*61
$GPGSA,A,3,01,02,03,04,05,06,07,08,09,10,11,12,1.0,1.0,1.0*30
$GPRMC,142837.273,A,5211.244,N,01128.184,E,16481.0,238.4,040321,000.0,W*76
$GPGGA,142838.273,5208.009,N,01122.910,E,1,12,1.0,0.0,M,0.0,M,,*62
$GPGSA,A,3,01,02,03,04,05,06,07,08,09,10,11,12,1.0,1.0,1.0*30
$GPRMC,142838.273,A,5208.009,N,01122.910,E,19573.7,141.0,040321,000.0,W*78
$GPGGA,142839.273,5203.149,N,01126.865,E,1,12,1.0,0.0,M,0.0,M,,*6A
$GPGSA,A,3,01,02,03,04,05,06,07,08,09,10,11,12,1.0,1.0,1.0*30
$GPRMC,142839.273,A,5203.149,N,01126.865,E,40997.7,092.5,040321,000.0,W*70
$GPGGA,142840.273,5202.339,N,01145.322,E,1,12,1.0,0.0,M,0.0,M,,*6D
$GPGSA,A,3,01,02,03,04,05,06,07,08,09,10,11,12,1.0,1.0,1.0*30
$GPRMC,142840.273,A,5202.339,N,01145.322,E,36666.1,138.6,040321,000.0,W*73
$GPGGA,142841.273,5153.403,N,01153.232,E,1,12,1.0,0.0,M,0.0,M,,*62
$GPGSA,A,3,01,02,03,04,05,06,07,08,09,10,11,12,1.0,1.0,1.0*30
$GPRMC,142841.273,A,5153.403,N,01153.232,E,72577.7,261.2,040321,000.0,W*72
$GPGGA,142842.273,5148.517,N,01121.592,E,1,12,1.0,0.0,M,0.0,M,,*67
$GPGSA,A,3,01,02,03,04,05,06,07,08,09,10,11,12,1.0,1.0,1.0*30
$GPRMC,142842.273,A,5148.517,N,01121.592,E,70256.3,133.8,040321,000.0,W*7B
$GPGGA,142843.273,5132.165,N,01138.730,E,1,12,1.0,0.0,M,0.0,M,,*68
$GPGSA,A,3,01,02,03,04,05,06,07,08,09,10,11,12,1.0,1.0,1.0*30
$GPRMC,142843.273,A,5132.165,N,01138.730,E,32495.8,090.0,040321,000.0,W*70
$GPGGA,142844.273,5132.165,N,01153.232,E,1,12,1.0,0.0,M,0.0,M,,*65
$GPGSA,A,3,01,02,03,04,05,06,07,08,09,10,11,12,1.0,1.0,1.0*30
$GPRMC,142844.273,A,5132.165,N,01153.232,E,60741.8,239.7,040321,000.0,W*76
$GPGGA,142845.273,5120.660,N,01133.457,E,1,12,1.0,0.0,M,0.0,M,,*66
$GPGSA,A,3,01,02,03,04,05,06,07,08,09,10,11,12,1.0,1.0,1.0*30
$GPRMC,142845.273,A,5120.660,N,01133.457,E,41619.4,180.0,040321,000.0,W*70
$GPGGA,142846.273,5109.107,N,01133.457,E,1,12,1.0,0.0,M,0.0,M,,*68
$GPGSA,A,3,01,02,03,04,05,06,07,08,09,10,11,12,1.0,1.0,1.0*30
$GPRMC,142846.273,A,5109.107,N,01133.457,E,57353.7,231.7,040321,000.0,W*7F
$GPGGA,142847.273,5056.675,N,01117.637,E,1,12,1.0,0.0,M,0.0,M,,*62
$GPGSA,A,3,01,02,03,04,05,06,07,08,09,10,11,12,1.0,1.0,1.0*30
$GPRMC,142847.273,A,5056.675,N,01117.637,E,48690.9,276.8,040321,000.0,W*73
$GPGGA,142848.273,5059.166,N,01056.543,E,1,12,1.0,0.0,M,0.0,M,,*63
$GPGSA,A,3,01,02,03,04,05,06,07,08,09,10,11,12,1.0,1.0,1.0*30
$GPRMC,142848.273,A,5059.166,N,01056.543,E,32219.5,255.8,040321,000.0,W*77
$GPGGA,142849.273,5055.844,N,01043.359,E,1,12,1.0,0.0,M,0.0,M,,*6E
$GPGSA,A,3,01,02,03,04,05,06,07,08,09,10,11,12,1.0,1.0,1.0*30
$GPRMC,142849.273,A,5055.844,N,01043.359,E,66971.7,263.4,040321,000.0,W*75
$GPGGA,142850.273,5052.519,N,01014.355,E,1,12,1.0,0.0,M,0.0,M,,*6A
$GPGSA,A,3,01,02,03,04,05,06,07,08,09,10,11,12,1.0,1.0,1.0*30
$GPRMC,142850.273,A,5052.519,N,01014.355,E,138025.4,268.4,040321,000.0,W*4B
$GPGGA,142851.273,5050.854,N,00913.711,E,1,12,1.0,0.0,M,0.0,M,,*66
$GPGSA,A,3,01,02,03,04,05,06,07,08,09,10,11,12,1.0,1.0,1.0*30
$GPRMC,142851.273,A,5050.854,N,00913.711,E,135893.1,251.5,040321,000.0,W*41
$GPGGA,142852.273,5033.319,N,00820.977,E,1,12,1.0,0.0,M,0.0,M,,*6D
$GPGSA,A,3,01,02,03,04,05,06,07,08,09,10,11,12,1.0,1.0,1.0*30
$GPRMC,142852.273,A,5033.319,N,00820.977,E,157930.6,256.8,040321,000.0,W*4B
$GPGGA,142853.273,5018.203,N,00716.377,E,1,12,1.0,0.0,M,0.0,M,,*6F
$GPGSA,A,3,01,02,03,04,05,06,07,08,09,10,11,12,1.0,1.0,1.0*30
$GPRMC,142853.273,A,5018.203,N,00716.377,E,118567.1,255.0,040321,000.0,W*40
$GPGGA,142854.273,5005.544,N,00628.916,E,1,12,1.0,0.0,M,0.0,M,,*61
$GPGSA,A,3,01,02,03,04,05,06,07,08,09,10,11,12,1.0,1.0,1.0*30
$GPRMC,142854.273,A,5005.544,N,00628.916,E,119020.2,268.1,040321,000.0,W*45
$GPGGA,142855.273,5003.852,N,00537.500,E,1,12,1.0,0.0,M,0.0,M,,*6A
$GPGSA,A,3,01,02,03,04,05,06,07,08,09,10,11,12,1.0,1.0,1.0*30
$GPRMC,142855.273,A,5003.852,N,00537.500,E,89981.7,227.6,040321,000.0,W*7D
$GPGGA,142856.273,4943.469,N,00515.088,E,1,12,1.0,0.0,M,0.0,M,,*64
$GPGSA,A,3,01,02,03,04,05,06,07,08,09,10,11,12,1.0,1.0,1.0*30
$GPRMC,142856.273,A,4943.469,N,00515.088,E,163965.6,252.7,040321,000.0,W*4E
$GPGGA,142857.273,4923.801,N,00411.807,E,1,12,1.0,0.0,M,0.0,M,,*6B
$GPGSA,A,3,01,02,03,04,05,06,07,08,09,10,11,12,1.0,1.0,1.0*30
$GPRMC,142857.273,A,4923.801,N,00411.807,E,102000.2,270.0,040321,000.0,W*4F
$GPGGA,142858.273,4923.801,N,00328.301,E,1,12,1.0,0.0,M,0.0,M,,*64
$GPGSA,A,3,01,02,03,04,05,06,07,08,09,10,11,12,1.0,1.0,1.0*30
$GPRMC,142858.273,A,4923.801,N,00328.301,E,70229.2,240.0,040321,000.0,W*7E
$GPGGA,142859.273,4910.902,N,00305.889,E,1,12,1.0,0.0,M,0.0,M,,*63
$GPGSA,A,3,01,02,03,04,05,06,07,08,09,10,11,12,1.0,1.0,1.0*30
$GPRMC,142859.273,A,4910.902,N,00305.889,E,76480.8,251.8,040321,000.0,W*78
$GPGGA,142900.273,4901.408,N,00236.885,E,1,12,1.0,0.0,M,0.0,M,,*64
$GPGSA,A,3,01,02,03,04,05,06,07,08,09,10,11,12,1.0,1.0,1.0*30
$GPRMC,142900.273,A,4901.408,N,00236.885,E,64917.9,245.0,040321,000.0,W*73
$GPGGA,142901.273,4851.015,N,00214.473,E,1,12,1.0,0.0,M,0.0,M,,*6C
$GPGSA,A,3,01,02,03,04,05,06,07,08,09,10,11,12,1.0,1.0,1.0*30
$GPRMC,142901.273,A,4851.015,N,00214.473,E,25091.0,086.8,040321,000.0,W*75
$GPGGA,142902.273,4851.612,N,00225.020,E,1,12,1.0,0.0,M,0.0,M,,*6E
$GPGSA,A,3,01,02,03,04,05,06,07,08,09,10,11,12,1.0,1.0,1.0*30
$GPRMC,142902.273,A,4851.612,N,00225.020,E,31869.2,081.3,040321,000.0,W*73
$GPGGA,142903.273,4853.617,N,00238.121,E,1,12,1.0,0.0,M,0.0,M,,*64
$GPGSA,A,3,01,02,03,04,05,06,07,08,09,10,11,12,1.0,1.0,1.0*30
$GPRMC,142903.273,A,4853.617,N,00238.121,E,25891.8,048.9,040321,000.0,W*7E
$GPGGA,142904.273,4859.354,N,00244.713,E,1,12,1.0,0.0,M,0.0,M,,*67
$GPGSA,A,3,01,02,03,04,05,06,07,08,09,10,11,12,1.0,1.0,1.0*30
$GPRMC,142904.273,A,4859.354,N,00244.713,E,35523.8,072.7,040321,000.0,W*7F
$GPGGA,142905.273,4903.568,N,00258.308,E,1,12,1.0,0.0,M,0.0,M,,*62
$GPGSA,A,3,01,02,03,04,05,06,07,08,09,10,11,12,1.0,1.0,1.0*30
$GPRMC,142905.273,A,4903.568,N,00258.308,E,37630.6,098.1,040321,000.0,W*75
$GPGGA,142906.273,4901.354,N,00313.881,E,1,12,1.0,0.0,M,0.0,M,,*6E
$GPGSA,A,3,01,02,03,04,05,06,07,08,09,10,11,12,1.0,1.0,1.0*30
$GPRMC,142906.273,A,4901.354,N,00313.881,E,63084.6,249.9,040321,000.0,W*77
$GPGGA,142907.273,4852.858,N,00250.563,E,1,12,1.0,0.0,M,0.0,M,,*68
$GPGSA,A,3,01,02,03,04,05,06,07,08,09,10,11,12,1.0,1.0,1.0*30
$GPRMC,142907.273,A,4852.858,N,00250.563,E,67088.8,120.1,040321,000.0,W*73
$GPGGA,142908.273,4840.587,N,00311.821,E,1,12,1.0,0.0,M,0.0,M,,*64
$GPGSA,A,3,01,02,03,04,05,06,07,08,09,10,11,12,1.0,1.0,1.0*30
$GPRMC,142908.273,A,4840.587,N,00311.821,E,100845.9,225.6,040321,000.0,W*46
$GPGGA,142909.273,4817.430,N,00248.091,E,1,12,1.0,0.0,M,0.0,M,,*64
$GPGSA,A,3,01,02,03,04,05,06,07,08,09,10,11,12,1.0,1.0,1.0*30
$GPRMC,142909.273,A,4817.430,N,00248.091,E,180117.7,089.3,040321,000.0,W*4F
$GPGGA,142910.273,4818.307,N,00403.237,E,1,12,1.0,0.0,M,0.0,M,,*67
$GPGSA,A,3,01,02,03,04,05,06,07,08,09,10,11,12,1.0,1.0,1.0*30
$GPRMC,142910.273,A,4818.307,N,00403.237,E,44343.7,176.9,040321,000.0,W*7D
$GPGGA,142911.273,4806.006,N,00403.896,E,1,12,1.0,0.0,M,0.0,M,,*6A
$GPGSA,A,3,01,02,03,04,05,06,07,08,09,10,11,12,1.0,1.0,1.0*30
$GPRMC,142911.273,A,4806.006,N,00403.896,E,166507.2,251.8,040321,000.0,W*45
$GPGGA,142912.273,4745.689,N,00301.934,E,1,12,1.0,0.0,M,0.0,M,,*6C
$GPGSA,A,3,01,02,03,04,05,06,07,08,09,10,11,12,1.0,1.0,1.0*30
$GPRMC,142912.273,A,4745.689,N,00301.934,E,103327.8,276.0,040321,000.0,W*43
$GPGGA,142913.273,4750.117,N,00219.746,E,1,12,1.0,0.0,M,0.0,M,,*6A
$GPGSA,A,3,01,02,03,04,05,06,07,08,09,10,11,12,1.0,1.0,1.0*30
$GPRMC,142913.273,A,4750.117,N,00219.746,E,72813.9,276.8,040321,000.0,W*77
$GPGGA,142914.273,4753.655,N,00150.083,E,1,12,1.0,0.0,M,0.0,M,,*6F
$GPGSA,A,3,01,02,03,04,05,06,07,08,09,10,11,12,1.0,1.0,1.0*30
$GPRMC,142914.273,A,4753.655,N,00150.083,E,146890.6,190.1,040321,000.0,W*42
$GPGGA,142915.273,4713.174,N,00142.832,E,1,12,1.0,0.0,M,0.0,M,,*6F
$GPGSA,A,3,01,02,03,04,05,06,07,08,09,10,11,12,1.0,1.0,1.0*30
$GPRMC,142915.273,A,4713.174,N,00142.832,E,230298.4,239.7,040321,000.0,W*46
$GPGGA,142916.273,4631.718,N,00031.641,E,1,12,1.0,0.0,M,0.0,M,,*6E
$GPGSA,A,3,01,02,03,04,05,06,07,08,09,10,11,12,1.0,1.0,1.0*30
$GPRMC,142916.273,A,4631.718,N,00031.641,E,381547.5,198.3,040321,000.0,W*44
$GPGGA,142917.273,4448.547,N,00002.637,W,1,12,1.0,0.0,M,0.0,M,,*78
$GPGSA,A,3,01,02,03,04,05,06,07,08,09,10,11,12,1.0,1.0,1.0*30
$GPRMC,142917.273,A,4448.547,N,00002.637,W,172689.3,128.6,040321,000.0,W*55
$GPGGA,142918.273,4412.823,N,00042.188,E,1,12,1.0,0.0,M,0.0,M,,*62
$GPGSA,A,3,01,02,03,04,05,06,07,08,09,10,11,12,1.0,1.0,1.0*30
$GPRMC,142918.273,A,4412.823,N,00042.188,E,121187.3,202.2,040321,000.0,W*4F
$GPGGA,142919.273,4340.549,N,00029.004,E,1,12,1.0,0.0,M,0.0,M,,*6A
$GPGSA,A,3,01,02,03,04,05,06,07,08,09,10,11,12,1.0,1.0,1.0*30
$GPRMC,142919.273,A,4340.549,N,00029.004,E,219984.0,127.3,040321,000.0,W*42
$GPGGA,142920.273,4256.420,N,00127.012,E,1,12,1.0,0.0,M,0.0,M,,*60
$GPGSA,A,3,01,02,03,04,05,06,07,08,09,10,11,12,1.0,1.0,1.0*30
$GPRMC,142920.273,A,4256.420,N,00127.012,E,104349.9,207.0,040321,000.0,W*47
$GPGGA,142921.273,4229.298,N,00113.169,E,1,12,1.0,0.0,M,0.0,M,,*66
$GPGSA,A,3,01,02,03,04,05,06,07,08,09,10,11,12,1.0,1.0,1.0*30
$GPRMC,142921.273,A,4229.298,N,00113.169,E,104349.9,207.0,040321,000.0,W*41
